[{"month_or_today": 12, "title": "Colorado Mesa University Holiday Choral Concert", "start_time": "7:30PM", "location_in_words": "Moss Performing Arts Center", "tag": "Music", "day_of_month": 7, "address": "1221 North 12th Street", "city": "Grand Junction", "zip": "81501", "state": "CO", "coordinates": ["39.0784948", "-108.5524634"], "link": "https://www.gjsentinel.com/local-events/?_evDiscoveryPath=/event/1447936-colorado-mesa-university-holiday-choral-concert"}, {"month_or_today": "12", "title": "Chuck Jay", "start_time": "5:30PM", "location_in_words": "Base Camp Beer Works", "tag": "Gig", "day_of_month": "8", "address": "2575 U.S. 6 & 50", "city": "Grand Junction", "zip": "81501", "state": "CO", "coordinates": ["39.0744212", "-108.5754183"], "link": "https://www.gjsentinel.com/local-events/?_evDiscoveryPath=/event/1458716-chuck-jay"}, {"month_or_today": "12", "title": "Away for the Holidays: Grand Junction High School Holiday Extravaganza", "start_time": "7:00PM", "location_in_words": "Grand Junction Nazarene Church", "tag": "Music", "day_of_month": "8", "address": "2802 Patterson Road", "city": "Grand Junction", "zip": "81506", "state": "CO", "coordinates": ["39.0925505", "-108.5325259"], "link": "https://www.gjsentinel.com/local-events/?_evDiscoveryPath=/event/1448010-away-for-the-holidays-grand-junction-high-school-holiday-extravaganza"}, {"month_or_today": "12", "title": "A Christmas Carol A Musical", "start_time": "7:00PM", "location_in_words": "3940 27 1/2 Rd", "tag": "Musical", "day_of_month": "8", "address": "3940 27 1/2 Road", "city": "Grand Junction", "zip": "81506", "state": "CO", "coordinates": ["39.1036276", "-108.5425134"], "link": "https://www.gjsentinel.com/local-events/?_evDiscoveryPath=/event/1403567-a-christmas-carol-a-musical"}, {"month_or_today": "12", "title": "Spirit of Christmas Walk", "start_time": "5:30PM", "location_in_words": "Main Street", "tag": "Seasonal", "day_of_month": "9", "address": "Main St Main Street", "city": "Grand Junction", "zip": "81501", "state": "CO", "coordinates": ["39.0673241", "-108.5593516"], "link": "https://www.gjsentinel.com/local-events/?_evDiscoveryPath=/event/1449222-spirit-of-christmas-walk"}, {"month_or_today": "12", "title": "A Christmas Carol A Musical", "start_time": "7:00PM", "location_in_words": "3940 27 1/2 Rd", "tag": "Musical", "day_of_month": "9", "address": "3940 27 1/2 Road", "city": "Grand Junction", "zip": "81506", "state": "CO", "coordinates": ["39.1036276", "-108.5425134"], "link": "https://www.gjsentinel.com/local-events/?_evDiscoveryPath=/event/1403570-a-christmas-carol-a-musical"}, {"month_or_today": "12", "title": "Colorado Mesa University Orchestra Concert", "start_time": "7:30PM", "location_in_words": "Moss Performing Arts Center", "tag": "Music", "day_of_month": "9", "address": "1221 North 12th Street", "city": "Grand Junction", "zip": "81501", "state": "CO", "coordinates": ["39.0784948", "-108.5524634"], "link": "https://www.gjsentinel.com/local-events/?_evDiscoveryPath=/event/1447947-colorado-mesa-university-orchestra-concert"}, {"month_or_today": "12", "title": "The Oxymorons", "start_time": "8:30PM", "location_in_words": "Warehouse25sixty-five Kitchen + Bar", "tag": "Gig", "day_of_month": "9", "address": "2565 American Way", "city": "Grand Junction", "zip": "81501", "state": "CO", "coordinates": ["39.0744444", "-108.5777778"], "link": "https://www.gjsentinel.com/local-events/?_evDiscoveryPath=/event/1449860-the-oxymorons"}, {"month_or_today": "12", "title": "Masonic Christmas Craft Fair", "start_time": "9:00AM", "location_in_words": "Grand Valley Event Center", "tag": "Craft Fairs", "day_of_month": "10", "address": "2400 Consistory Court", "city": "Grand Junction", "zip": "81501", "state": "CO", "coordinates": ["39.089714", "-108.56847"], "link": "https://www.gjsentinel.com/local-events/?_evDiscoveryPath=/event/1449896-masonic-christmas-craft-fair"}, {"month_or_today": "12", "title": "Candy Cane Hunt", "start_time": "10:00AM", "location_in_words": "Lincoln Park Barn", "tag": "Seasonal", "day_of_month": "10", "address": "Grand Junction", "city": "Grand Junction", "zip": "81501", "state": "CO", "coordinates": ["39.0756233", "-108.5522313"], "link": "https://www.gjsentinel.com/local-events/?_evDiscoveryPath=/event/1449260-candy-cane-hunt"}, {"month_or_today": "12", "title": "Santa Cause 5K/1K", "start_time": "10:00AM", "location_in_words": "Amphitheater at Las Colonias Park", "tag": "Running", "day_of_month": "10", "address": "925 Struthers Avenue", "city": "Grand Junction", "zip": "81501", "state": "CO", "coordinates": ["39.0558155", "-108.5553754"], "link": "https://www.gjsentinel.com/local-events/?_evDiscoveryPath=/event/1449249-santa-cause-5k-1k"}, {"month_or_today": "12", "title": "Grand Valley Model Railroad Club Christmas Train Show", "start_time": "10:00AM", "location_in_words": "Cross Orchards Historic Site, Museums of Western Colorado", "tag": "Seasonal", "day_of_month": "10", "address": "3073 F Road", "city": "Grand Junction", "zip": "81504", "state": "CO", "coordinates": ["39.0914955", "-108.4830551"], "link": "https://www.gjsentinel.com/local-events/?_evDiscoveryPath=/event/1447975-grand-valley-model-railroad-club-christmas-train-show"}, {"month_or_today": "12", "title": "Away for the Holidays: Grand Junction High School Holiday Extravaganza", "start_time": "1:00PM", "location_in_words": "Grand Junction Nazarene Church", "tag": "Music", "day_of_month": "10", "address": "2802 Patterson Road", "city": "Grand Junction", "zip": "81506", "state": "CO", "coordinates": ["39.0925505", "-108.5325259"], "link": "https://www.gjsentinel.com/local-events/?_evDiscoveryPath=/event/1448013-away-for-the-holidays-grand-junction-high-school-holiday-extravaganza"}, {"month_or_today": "12", "title": "A Christmas Carol A Musical", "start_time": "2:00PM", "location_in_words": "3940 27 1/2 Rd", "tag": "Musical", "day_of_month": "10", "address": "3940 27 1/2 Road", "city": "Grand Junction", "zip": "81506", "state": "CO", "coordinates": ["39.1036276", "-108.5425134"], "link": "https://www.gjsentinel.com/local-events/?_evDiscoveryPath=/event/1403573-a-christmas-carol-a-musical"}, {"month_or_today": "12", "title": "The Brewery Comedy Tour", "start_time": "7:00PM", "location_in_words": "Edgewater Brewery", "tag": "Comedy", "day_of_month": "10", "address": "905 Struthers Avenue", "city": "Grand Junction", "zip": "81501", "state": "CO", "coordinates": ["39.0551445", "-108.5573094"], "link": "https://www.gjsentinel.com/local-events/?_evDiscoveryPath=/event/1450021-the-brewery-comedy-tour"}, {"month_or_today": "12", "title": "International Folk Dance", "start_time": "7:00PM", "location_in_words": "Margery Building", "tag": "Dance", "day_of_month": "10", "address": "523 1/2 Main Street", "city": "Grand Junction", "zip": "81501", "state": "CO", "coordinates": ["39.0670663", "-108.5638679"], "link": "https://www.gjsentinel.com/local-events/?_evDiscoveryPath=/event/1449921-international-folk-dance"}, {"month_or_today": "12", "title": "A Christmas Carol A Musical", "start_time": "7:00PM", "location_in_words": "3940 27 1/2 Rd", "tag": "Musical", "day_of_month": "10", "address": "3940 27 1/2 Road", "city": "Grand Junction", "zip": "81506", "state": "CO", "coordinates": ["39.1036276", "-108.5425134"], "link": "https://www.gjsentinel.com/local-events/?_evDiscoveryPath=/event/1403574-a-christmas-carol-a-musical"}, {"month_or_today": "12", "title": "Grand Junction Centennial Band Winter Concert", "start_time": "3:00PM", "location_in_words": "Colorado Mesa University", "tag": "Music", "day_of_month": "11", "address": "1100 North Avenue", "city": "Grand Junction", "zip": "81501", "state": "CO", "coordinates": ["39.0804917", "-108.5534074"], "link": "https://www.gjsentinel.com/local-events/?_evDiscoveryPath=/event/1449233-grand-junction-centennial-band-winter-concert"}, {"month_or_today": "12", "title": "Barbershop Chorus Christmas Concert: Our Christmas Gift", "start_time": "7:00PM", "location_in_words": "720 Grand Ave", "tag": "Live Music", "day_of_month": "13", "address": "720 Grand Avenue", "city": "Grand Junction", "zip": "81501", "state": "CO", "coordinates": ["39.0708247", "-108.5605553"], "link": "https://www.gjsentinel.com/local-events/?_evDiscoveryPath=/event/1452122-barbershop-chorus-christmas-concert-our-christmas-gift"}, {"month_or_today": "12", "title": "The Bookcliff Barbershop Harmony Chorus Christmas Concert", "start_time": "7:00PM", "location_in_words": "First Baptist Church", "tag": "Music", "day_of_month": "13", "address": "720 Grand Avenue", "city": "Grand Junction", "zip": "81501", "state": "CO", "coordinates": ["39.070529", "-108.5607809"], "link": "https://www.gjsentinel.com/local-events/?_evDiscoveryPath=/event/1449853-the-bookcliff-barbershop-harmony-chorus-christmas-concert"}, {"month_or_today": "12", "title": "THE Tuesday Jam", "start_time": "7:00PM", "location_in_words": "Charlie Dwellingtons", "tag": "Gig", "day_of_month": "13", "address": "103 North 1st Street", "city": "Grand Junction", "zip": "81501", "state": "CO", "coordinates": ["39.0675354", "-108.5713882"], "link": "https://www.gjsentinel.com/local-events/?_evDiscoveryPath=/event/1447928-the-tuesday-jam"}, {"month_or_today": "12", "title": "A Little Noon Music", "start_time": "12:00PM", "location_in_words": "First United Methodist Church", "tag": "Music", "day_of_month": "14", "address": "522 White Avenue", "city": "Grand Junction", "zip": "81501", "state": "CO", "coordinates": ["39.069544", "-108.564053"], "link": "https://www.gjsentinel.com/local-events/?_evDiscoveryPath=/event/1456686-a-little-noon-music"}, {"month_or_today": "12", "title": "Central High School Winter Band Carnival Concert", "start_time": "7:00PM", "location_in_words": "Central High School", "tag": "Music", "day_of_month": "14", "address": "550 Warrior Way", "city": "Grand Junction", "zip": "81504", "state": "CO", "coordinates": ["39.0872383", "-108.4725112"], "link": "https://www.gjsentinel.com/local-events/?_evDiscoveryPath=/event/1456724-central-high-school-winter-band-carnival-concert"}, {"month_or_today": "12", "title": "Chuck Jay", "start_time": "5:30PM", "location_in_words": "Base Camp Beer Works", "tag": "Gig", "day_of_month": "15", "address": "2575 U.S. 6 & 50", "city": "Grand Junction", "zip": "81501", "state": "CO", "coordinates": ["39.0744212", "-108.5754183"], "link": "https://www.gjsentinel.com/local-events/?_evDiscoveryPath=/event/1458713-chuck-jay"}, {"month_or_today": "12", "title": "Troy Douglas Trio", "start_time": "5:00PM", "location_in_words": "Grand Vista Hotel", "tag": "Gig", "day_of_month": "16", "address": "2790 Crossroads Boulevard", "city": "Grand Junction", "zip": "81506", "state": "CO", "coordinates": ["39.1151605", "-108.535577"], "link": "https://www.gjsentinel.com/local-events/?_evDiscoveryPath=/event/1456559-troy-douglas-trio"}, {"month_or_today": "12", "title": "\"Journey Through Narnia\"", "start_time": "6:00PM", "location_in_words": "Northeast Christian Church", "tag": "Dance", "day_of_month": "16", "address": "2751 Patterson Road", "city": "Grand Junction", "zip": "81506", "state": "CO", "coordinates": ["39.0909913", "-108.542525"], "link": "https://www.gjsentinel.com/local-events/?_evDiscoveryPath=/event/1457069--journey-through-narnia-"}, {"month_or_today": "12", "title": "Swingin' Sweets: A Holiday Jazz Dance & Craft Fair", "start_time": "6:00PM", "location_in_words": "Grand Junction High School", "tag": "Music", "day_of_month": "16", "address": "1400 North 5th Street", "city": "Grand Junction", "zip": "81501", "state": "CO", "coordinates": ["39.080294", "-108.5632142"], "link": "https://www.gjsentinel.com/local-events/?_evDiscoveryPath=/event/1457030-swingin-sweets-a-holiday-jazz-dance-craft-fair"}, {"month_or_today": "12", "title": "Winter at The Gardens: Festival of Lights", "start_time": "6:00PM", "location_in_words": "Western Colorado Botanical Gardens", "tag": "Seasonal", "day_of_month": "16", "address": "655 Struthers Avenue", "city": "Grand Junction", "zip": "81501", "state": "CO", "coordinates": ["39.0552228", "-108.5612046"], "link": "https://www.gjsentinel.com/local-events/?_evDiscoveryPath=/event/1456748-winter-at-the-gardens-festival-of-lights"}, {"month_or_today": "12", "title": "Holidays on Ice", "start_time": "6:00PM", "location_in_words": "River City Sportplex", "tag": "Seasonal", "day_of_month": "16", "address": "2515 Riverside Parkway", "city": "Grand Junction", "zip": "81501", "state": "CO", "coordinates": ["39.0780614", "-108.5885057"], "link": "https://www.gjsentinel.com/local-events/?_evDiscoveryPath=/event/1456625-holidays-on-ice"}, {"month_or_today": "12", "title": "Gary Russell", "start_time": "8:00PM", "location_in_words": "Orchard Mesa Cruisers", "tag": "Gig", "day_of_month": "16", "address": "2692 Hwy. 50", "city": "Grand Junction", "zip": "81503", "state": "CO", "coordinates": ["39.0442336", "-108.5537417"], "link": "https://www.gjsentinel.com/local-events/?_evDiscoveryPath=/event/1458738-gary-russell"}]